%time,field.hdr.seq,field.hdr.stamp,field.hdr.frame_id,field.del_pos0,field.del_pos1,field.del_pos2,field.del_pos3,field.del_pos4,field.del_pos5,field.tf_incr0.translation.x,field.tf_incr0.translation.y,field.tf_incr0.translation.z,field.tf_incr0.rotation.x,field.tf_incr0.rotation.y,field.tf_incr0.rotation.z,field.tf_incr0.rotation.w,field.tf_incr1.translation.x,field.tf_incr1.translation.y,field.tf_incr1.translation.z,field.tf_incr1.rotation.x,field.tf_incr1.rotation.y,field.tf_incr1.rotation.z,field.tf_incr1.rotation.w
1529453241891772606,0,1529453241891627134,,0,0,0,0,0,0,0.0,0.444810753964,-2.96684064169,0.0,0.0,0.0,1.0,0.0,-0.869423693098,-2.87125450664,0.0,0.0,0.0,1.0
1529453241892683857,0,1529453241892628503,,0,0,0,0,0,0,0.0,0.444810753964,-2.96684064169,0.0,0.0,0.0,1.0,0.0,-0.869423693098,-2.87125450664,0.0,0.0,0.0,1.0
1529453241893703105,0,1529453241893627538,,0,0,0,0,0,0,0.0,0.444810753964,-2.96684064169,0.0,0.0,0.0,1.0,0.0,-0.869423693098,-2.87125450664,0.0,0.0,0.0,1.0
1529453241894697101,0,1529453241894626271,,0,0,0,0,0,0,0.0,0.444810753964,-2.96684064169,0.0,0.0,0.0,1.0,0.0,-0.869423693098,-2.87125450664,0.0,0.0,0.0,1.0
1529453241895693372,0,1529453241895626214,,0,0,0,0,0,0,0.0,0.444810753964,-2.96684064169,0.0,0.0,0.0,1.0,0.0,-0.869423693098,-2.87125450664,0.0,0.0,0.0,1.0
1529453241896699268,0,1529453241896627483,,0,0,0,0,0,0,0.0,0.444810753964,-2.96684064169,0.0,0.0,0.0,1.0,0.0,-0.869423693098,-2.87125450664,0.0,0.0,0.0,1.0
1529453241897706047,0,1529453241897626411,,0,0,0,0,0,0,0.0,0.444810753964,-2.96684064169,0.0,0.0,0.0,1.0,0.0,-0.869423693098,-2.87125450664,0.0,0.0,0.0,1.0
1529453241898700247,0,1529453241898625781,,0,0,0,0,0,0,0.0,0.444810753964,-2.96684064169,0.0,0.0,0.0,1.0,0.0,-0.869423693098,-2.87125450664,0.0,0.0,0.0,1.0
1529453241899697444,0,1529453241899626163,,0,0,0,0,0,0,0.0,0.444810753964,-2.96684064169,0.0,0.0,0.0,1.0,0.0,-0.869423693098,-2.87125450664,0.0,0.0,0.0,1.0
1529453241900695322,0,1529453241900625881,,0,0,0,0,0,0,0.0,0.444810753964,-2.96684064169,0.0,0.0,0.0,1.0,0.0,-0.869423693098,-2.87125450664,0.0,0.0,0.0,1.0
1529453241901716525,0,1529453241901625810,,0,0,0,0,0,0,0.0,0.444810753964,-2.96684064169,0.0,0.0,0.0,1.0,0.0,-0.869423693098,-2.87125450664,0.0,0.0,0.0,1.0
1529453241902712249,0,1529453241902626499,,0,0,0,0,0,0,0.0,0.444810753964,-2.96684064169,0.0,0.0,0.0,1.0,0.0,-0.869423693098,-2.87125450664,0.0,0.0,0.0,1.0
1529453241903963228,0,1529453241903894202,,0,0,0,0,0,0,0.0,0.444810753964,-2.96684064169,0.0,0.0,0.0,1.0,0.0,-0.869423693098,-2.87125450664,0.0,0.0,0.0,1.0
1529453241904709094,0,1529453241904627179,,0,0,0,0,0,0,0.0,0.444810753964,-2.96684064169,0.0,0.0,0.0,1.0,0.0,-0.869423693098,-2.87125450664,0.0,0.0,0.0,1.0
1529453241905724965,0,1529453241905626552,,0,0,0,0,0,0,0.0,0.444810753964,-2.96684064169,0.0,0.0,0.0,1.0,0.0,-0.869423693098,-2.87125450664,0.0,0.0,0.0,1.0
1529453241906698725,0,1529453241906625877,,0,0,0,0,0,0,0.0,0.444810753964,-2.96684064169,0.0,0.0,0.0,1.0,0.0,-0.869423693098,-2.87125450664,0.0,0.0,0.0,1.0
1529453241907695671,0,1529453241907625874,,0,0,0,0,0,0,0.0,0.444810753964,-2.96684064169,0.0,0.0,0.0,1.0,0.0,-0.869423693098,-2.87125450664,0.0,0.0,0.0,1.0
1529453241908687406,0,1529453241908625852,,0,0,0,0,0,0,0.0,0.444810753964,-2.96684064169,0.0,0.0,0.0,1.0,0.0,-0.869423693098,-2.87125450664,0.0,0.0,0.0,1.0
1529453241909700182,0,1529453241909625851,,0,0,0,0,0,0,0.0,0.444810753964,-2.96684064169,0.0,0.0,0.0,1.0,0.0,-0.869423693098,-2.87125450664,0.0,0.0,0.0,1.0
1529453241910700832,0,1529453241910625535,,0,0,0,0,0,0,0.0,0.444810753964,-2.96684064169,0.0,0.0,0.0,1.0,0.0,-0.869423693098,-2.87125450664,0.0,0.0,0.0,1.0
1529453241911691919,0,1529453241911627421,,0,0,0,0,0,0,0.0,0.444810753964,-2.96684064169,0.0,0.0,0.0,1.0,0.0,-0.869423693098,-2.87125450664,0.0,0.0,0.0,1.0
1529453241912698693,0,1529453241912631183,,0,0,0,0,0,0,0.0,0.444810753964,-2.96684064169,0.0,0.0,0.0,1.0,0.0,-0.869423693098,-2.87125450664,0.0,0.0,0.0,1.0
1529453241913700833,0,1529453241913625941,,0,0,0,0,0,0,0.0,0.444810753964,-2.96684064169,0.0,0.0,0.0,1.0,0.0,-0.869423693098,-2.87125450664,0.0,0.0,0.0,1.0
1529453241914693407,0,1529453241914625798,,0,0,0,0,0,0,0.0,0.444810753964,-2.96684064169,0.0,0.0,0.0,1.0,0.0,-0.869423693098,-2.87125450664,0.0,0.0,0.0,1.0
1529453241915691962,0,1529453241915625884,,0,0,0,0,0,0,0.0,0.444810753964,-2.96684064169,0.0,0.0,0.0,1.0,0.0,-0.869423693098,-2.87125450664,0.0,0.0,0.0,1.0
1529453241916691419,0,1529453241916625779,,0,0,0,0,0,0,0.0,0.444810753964,-2.96684064169,0.0,0.0,0.0,1.0,0.0,-0.869423693098,-2.87125450664,0.0,0.0,0.0,1.0
1529453241917700472,0,1529453241917625623,,0,0,0,0,0,0,0.0,0.444810753964,-2.96684064169,0.0,0.0,0.0,1.0,0.0,-0.869423693098,-2.87125450664,0.0,0.0,0.0,1.0
1529453241918693299,0,1529453241918625583,,0,0,0,0,0,0,0.0,0.444810753964,-2.96684064169,0.0,0.0,0.0,1.0,0.0,-0.869423693098,-2.87125450664,0.0,0.0,0.0,1.0
1529453241919691282,0,1529453241919625840,,0,0,0,0,0,0,0.0,0.444810753964,-2.96684064169,0.0,0.0,0.0,1.0,0.0,-0.869423693098,-2.87125450664,0.0,0.0,0.0,1.0
1529453241920690667,0,1529453241920625675,,0,0,0,0,0,0,0.0,0.444810753964,-2.96684064169,0.0,0.0,0.0,1.0,0.0,-0.869423693098,-2.87125450664,0.0,0.0,0.0,1.0
1529453241921699348,0,1529453241921625606,,0,0,0,0,0,0,0.0,0.444810753964,-2.96684064169,0.0,0.0,0.0,1.0,0.0,-0.869423693098,-2.87125450664,0.0,0.0,0.0,1.0
1529453241922692760,0,1529453241922625323,,0,0,0,0,0,0,0.0,0.444810753964,-2.96684064169,0.0,0.0,0.0,1.0,0.0,-0.869423693098,-2.87125450664,0.0,0.0,0.0,1.0
1529453241923691265,0,1529453241923625718,,0,0,0,0,0,0,0.0,0.444810753964,-2.96684064169,0.0,0.0,0.0,1.0,0.0,-0.869423693098,-2.87125450664,0.0,0.0,0.0,1.0
1529453241924691253,0,1529453241924625722,,0,0,0,0,0,0,0.0,0.444810753964,-2.96684064169,0.0,0.0,0.0,1.0,0.0,-0.869423693098,-2.87125450664,0.0,0.0,0.0,1.0
1529453241925699346,0,1529453241925625545,,0,0,0,0,0,0,0.0,0.444810753964,-2.96684064169,0.0,0.0,0.0,1.0,0.0,-0.869423693098,-2.87125450664,0.0,0.0,0.0,1.0
1529453241926692072,0,1529453241926625447,,0,0,0,0,0,0,0.0,0.444810753964,-2.96684064169,0.0,0.0,0.0,1.0,0.0,-0.869423693098,-2.87125450664,0.0,0.0,0.0,1.0
1529453241927691892,0,1529453241927625775,,0,0,0,0,0,0,0.0,0.444810753964,-2.96684064169,0.0,0.0,0.0,1.0,0.0,-0.869423693098,-2.87125450664,0.0,0.0,0.0,1.0
1529453241928691015,0,1529453241928625645,,0,0,0,0,0,0,0.0,0.444810753964,-2.96684064169,0.0,0.0,0.0,1.0,0.0,-0.869423693098,-2.87125450664,0.0,0.0,0.0,1.0
1529453241929700018,0,1529453241929625696,,0,0,0,0,0,0,0.0,0.444810753964,-2.96684064169,0.0,0.0,0.0,1.0,0.0,-0.869423693098,-2.87125450664,0.0,0.0,0.0,1.0
1529453241930752277,0,1529453241930625725,,0,0,0,0,0,0,0.0,0.483579699814,-2.96076859513,0.0,0.0,0.0,1.0,0.0,-0.843781324561,-2.8788944191,0.0,0.0,0.0,1.0
1529453241931700829,0,1529453241931625928,,0,0,0,0,0,0,0.0,0.557312224383,-2.94777934801,0.0,0.0,0.0,1.0,0.0,-0.807831468268,-2.88918817644,0.0,0.0,0.0,1.0
1529453241932691789,0,1529453241932625790,,0,0,0,0,0,0,0.0,0.557312224383,-2.94777934801,0.0,0.0,0.0,1.0,0.0,-0.807831468268,-2.88918817644,0.0,0.0,0.0,1.0
1529453241933690531,0,1529453241933625640,,0,0,0,0,0,0,0.0,0.557312224383,-2.94777934801,0.0,0.0,0.0,1.0,0.0,-0.807831468268,-2.88918817644,0.0,0.0,0.0,1.0
1529453241934692425,0,1529453241934625449,,0,0,0,0,0,0,0.0,0.557312224383,-2.94777934801,0.0,0.0,0.0,1.0,0.0,-0.807831468268,-2.88918817644,0.0,0.0,0.0,1.0
1529453241935691012,0,1529453241935625722,,0,0,0,0,0,0,0.0,0.557312224383,-2.94777934801,0.0,0.0,0.0,1.0,0.0,-0.807831468268,-2.88918817644,0.0,0.0,0.0,1.0
1529453241936690810,0,1529453241936625635,,0,0,0,0,0,0,0.0,0.557312224383,-2.94777934801,0.0,0.0,0.0,1.0,0.0,-0.807831468268,-2.88918817644,0.0,0.0,0.0,1.0
1529453241937700152,0,1529453241937625622,,0,0,0,0,0,0,0.0,0.557312224383,-2.94777934801,0.0,0.0,0.0,1.0,0.0,-0.807831468268,-2.88918817644,0.0,0.0,0.0,1.0
1529453241938691884,0,1529453241938625516,,0,0,0,0,0,0,0.0,0.557312224383,-2.94777934801,0.0,0.0,0.0,1.0,0.0,-0.807831468268,-2.88918817644,0.0,0.0,0.0,1.0
1529453241939690784,0,1529453241939625791,,0,0,0,0,0,0,0.0,0.557312224383,-2.94777934801,0.0,0.0,0.0,1.0,0.0,-0.807831468268,-2.88918817644,0.0,0.0,0.0,1.0
1529453241940699189,0,1529453241940625502,,0,0,0,0,0,0,0.0,0.557312224383,-2.94777934801,0.0,0.0,0.0,1.0,0.0,-0.807831468268,-2.88918817644,0.0,0.0,0.0,1.0
1529453241941690656,0,1529453241941625734,,0,0,0,0,0,0,0.0,0.557312224383,-2.94777934801,0.0,0.0,0.0,1.0,0.0,-0.807831468268,-2.88918817644,0.0,0.0,0.0,1.0
1529453241942692174,0,1529453241942625258,,0,0,0,0,0,0,0.0,0.557312224383,-2.94777934801,0.0,0.0,0.0,1.0,0.0,-0.807831468268,-2.88918817644,0.0,0.0,0.0,1.0
1529453241943691081,0,1529453241943625828,,0,0,0,0,0,0,0.0,0.557312224383,-2.94777934801,0.0,0.0,0.0,1.0,0.0,-0.807831468268,-2.88918817644,0.0,0.0,0.0,1.0
1529453241944691994,0,1529453241944625609,,0,0,0,0,0,0,0.0,0.557312224383,-2.94777934801,0.0,0.0,0.0,1.0,0.0,-0.807831468268,-2.88918817644,0.0,0.0,0.0,1.0
1529453241945699410,0,1529453241945625584,,0,0,0,0,0,0,0.0,0.557312224383,-2.94777934801,0.0,0.0,0.0,1.0,0.0,-0.807831468268,-2.88918817644,0.0,0.0,0.0,1.0
1529453241946692709,0,1529453241946625474,,0,0,0,0,0,0,0.0,0.557312224383,-2.94777934801,0.0,0.0,0.0,1.0,0.0,-0.807831468268,-2.88918817644,0.0,0.0,0.0,1.0
1529453241947700358,0,1529453241947625798,,0,0,0,0,0,0,0.0,0.557312224383,-2.94777934801,0.0,0.0,0.0,1.0,0.0,-0.807831468268,-2.88918817644,0.0,0.0,0.0,1.0
1529453241948691756,0,1529453241948625773,,0,0,0,0,0,0,0.0,0.557312224383,-2.94777934801,0.0,0.0,0.0,1.0,0.0,-0.807831468268,-2.88918817644,0.0,0.0,0.0,1.0
1529453241949691335,0,1529453241949625614,,0,0,0,0,0,0,0.0,0.557312224383,-2.94777934801,0.0,0.0,0.0,1.0,0.0,-0.807831468268,-2.88918817644,0.0,0.0,0.0,1.0
1529453241950692252,0,1529453241950625436,,0,0,0,0,0,0,0.0,0.557312224383,-2.94777934801,0.0,0.0,0.0,1.0,0.0,-0.807831468268,-2.88918817644,0.0,0.0,0.0,1.0
1529453241951691190,0,1529453241951625788,,0,0,0,0,0,0,0.0,0.557312224383,-2.94777934801,0.0,0.0,0.0,1.0,0.0,-0.807831468268,-2.88918817644,0.0,0.0,0.0,1.0
1529453241952690727,0,1529453241952625583,,0,0,0,0,0,0,0.0,0.557312224383,-2.94777934801,0.0,0.0,0.0,1.0,0.0,-0.807831468268,-2.88918817644,0.0,0.0,0.0,1.0
1529453241953699614,0,1529453241953625632,,0,0,0,0,0,0,0.0,0.557312224383,-2.94777934801,0.0,0.0,0.0,1.0,0.0,-0.807831468268,-2.88918817644,0.0,0.0,0.0,1.0
1529453241954692088,0,1529453241954625395,,0,0,0,0,0,0,0.0,0.557312224383,-2.94777934801,0.0,0.0,0.0,1.0,0.0,-0.807831468268,-2.88918817644,0.0,0.0,0.0,1.0
1529453241955691017,0,1529453241955625777,,0,0,0,0,0,0,0.0,0.557312224383,-2.94777934801,0.0,0.0,0.0,1.0,0.0,-0.807831468268,-2.88918817644,0.0,0.0,0.0,1.0
1529453241956690764,0,1529453241956625673,,0,0,0,0,0,0,0.0,0.557312224383,-2.94777934801,0.0,0.0,0.0,1.0,0.0,-0.807831468268,-2.88918817644,0.0,0.0,0.0,1.0
1529453241957700258,0,1529453241957625734,,0,0,0,0,0,0,0.0,0.557312224383,-2.94777934801,0.0,0.0,0.0,1.0,0.0,-0.807831468268,-2.88918817644,0.0,0.0,0.0,1.0
1529453241958693839,0,1529453241958625649,,0,0,0,0,0,0,0.0,0.557312224383,-2.94777934801,0.0,0.0,0.0,1.0,0.0,-0.807831468268,-2.88918817644,0.0,0.0,0.0,1.0
1529453241959691927,0,1529453241959625965,,0,0,0,0,0,0,0.0,0.557312224383,-2.94777934801,0.0,0.0,0.0,1.0,0.0,-0.807831468268,-2.88918817644,0.0,0.0,0.0,1.0
1529453241960691607,0,1529453241960625711,,0,0,0,0,0,0,0.0,0.557312224383,-2.94777934801,0.0,0.0,0.0,1.0,0.0,-0.807831468268,-2.88918817644,0.0,0.0,0.0,1.0
1529453241961699430,0,1529453241961625619,,0,0,0,0,0,0,0.0,0.557312224383,-2.94777934801,0.0,0.0,0.0,1.0,0.0,-0.807831468268,-2.88918817644,0.0,0.0,0.0,1.0
1529453241962691575,0,1529453241962625599,,0,0,0,0,0,0,0.0,0.557312224383,-2.94777934801,0.0,0.0,0.0,1.0,0.0,-0.807831468268,-2.88918817644,0.0,0.0,0.0,1.0
1529453241963691922,0,1529453241963625765,,0,0,0,0,0,0,0.0,0.557312224383,-2.94777934801,0.0,0.0,0.0,1.0,0.0,-0.807831468268,-2.88918817644,0.0,0.0,0.0,1.0
1529453241964720424,0,1529453241964627189,,0,0,0,0,0,0,0.0,0.557312224383,-2.94777934801,0.0,0.0,0.0,1.0,0.0,-0.807831468268,-2.88918817644,0.0,0.0,0.0,1.0
1529453241965699162,0,1529453241965627419,,0,0,0,0,0,0,0.0,0.557312224383,-2.94777934801,0.0,0.0,0.0,1.0,0.0,-0.807831468268,-2.88918817644,0.0,0.0,0.0,1.0
1529453241966705807,0,1529453241966626217,,0,0,0,0,0,0,0.0,0.557312224383,-2.94777934801,0.0,0.0,0.0,1.0,0.0,-0.807831468268,-2.88918817644,0.0,0.0,0.0,1.0
1529453241967718282,0,1529453241967627472,,0,0,0,0,0,0,0.0,0.557312224383,-2.94777934801,0.0,0.0,0.0,1.0,0.0,-0.807831468268,-2.88918817644,0.0,0.0,0.0,1.0
1529453241968705532,0,1529453241968627435,,0,0,0,0,0,0,0.0,0.557312224383,-2.94777934801,0.0,0.0,0.0,1.0,0.0,-0.807831468268,-2.88918817644,0.0,0.0,0.0,1.0
1529453241969701746,0,1529453241969626148,,0,0,0,0,0,0,0.0,0.557312224383,-2.94777934801,0.0,0.0,0.0,1.0,0.0,-0.807831468268,-2.88918817644,0.0,0.0,0.0,1.0
1529453241970796863,0,1529453241970625948,,0,0,0,0,0,0,0.0,0.599508098415,-2.93948805746,0.0,0.0,0.0,1.0,0.0,-0.783571453988,-2.89586183657,0.0,0.0,0.0,1.0
1529453241971703085,0,1529453241971627406,,0,0,0,0,0,0,0.0,0.65710599693,-2.92715078341,0.0,0.0,0.0,1.0,0.0,-0.738892473773,-2.90758282981,0.0,0.0,0.0,1.0
1529453241972697385,0,1529453241972626446,,0,0,0,0,0,0,0.0,0.65710599693,-2.92715078341,0.0,0.0,0.0,1.0,0.0,-0.738892473773,-2.90758282981,0.0,0.0,0.0,1.0
1529453241973692806,0,1529453241973626217,,0,0,0,0,0,0,0.0,0.65710599693,-2.92715078341,0.0,0.0,0.0,1.0,0.0,-0.738892473773,-2.90758282981,0.0,0.0,0.0,1.0
1529453241974694445,0,1529453241974625793,,0,0,0,0,0,0,0.0,0.65710599693,-2.92715078341,0.0,0.0,0.0,1.0,0.0,-0.738892473773,-2.90758282981,0.0,0.0,0.0,1.0
1529453241975728262,0,1529453241975625742,,0,0,0,0,0,0,0.0,0.65710599693,-2.92715078341,0.0,0.0,0.0,1.0,0.0,-0.738892473773,-2.90758282981,0.0,0.0,0.0,1.0
1529453241976723420,0,1529453241976625895,,0,0,0,0,0,0,0.0,0.65710599693,-2.92715078341,0.0,0.0,0.0,1.0,0.0,-0.738892473773,-2.90758282981,0.0,0.0,0.0,1.0
1529453241977717222,0,1529453241977625721,,0,0,0,0,0,0,0.0,0.65710599693,-2.92715078341,0.0,0.0,0.0,1.0,0.0,-0.738892473773,-2.90758282981,0.0,0.0,0.0,1.0
1529453241978723337,0,1529453241978625280,,0,0,0,0,0,0,0.0,0.65710599693,-2.92715078341,0.0,0.0,0.0,1.0,0.0,-0.738892473773,-2.90758282981,0.0,0.0,0.0,1.0
1529453241979721803,0,1529453241979625733,,0,0,0,0,0,0,0.0,0.65710599693,-2.92715078341,0.0,0.0,0.0,1.0,0.0,-0.738892473773,-2.90758282981,0.0,0.0,0.0,1.0
1529453241980721194,0,1529453241980625609,,0,0,0,0,0,0,0.0,0.65710599693,-2.92715078341,0.0,0.0,0.0,1.0,0.0,-0.738892473773,-2.90758282981,0.0,0.0,0.0,1.0
1529453241981721749,0,1529453241981625453,,0,0,0,0,0,0,0.0,0.65710599693,-2.92715078341,0.0,0.0,0.0,1.0,0.0,-0.738892473773,-2.90758282981,0.0,0.0,0.0,1.0
1529453241982705958,0,1529453241982625546,,0,0,0,0,0,0,0.0,0.65710599693,-2.92715078341,0.0,0.0,0.0,1.0,0.0,-0.738892473773,-2.90758282981,0.0,0.0,0.0,1.0
1529453241983697250,0,1529453241983627258,,0,0,0,0,0,0,0.0,0.65710599693,-2.92715078341,0.0,0.0,0.0,1.0,0.0,-0.738892473773,-2.90758282981,0.0,0.0,0.0,1.0
1529453241984723849,0,1529453241984626173,,0,0,0,0,0,0,0.0,0.65710599693,-2.92715078341,0.0,0.0,0.0,1.0,0.0,-0.738892473773,-2.90758282981,0.0,0.0,0.0,1.0
1529453241985701811,0,1529453241985626070,,0,0,0,0,0,0,0.0,0.65710599693,-2.92715078341,0.0,0.0,0.0,1.0,0.0,-0.738892473773,-2.90758282981,0.0,0.0,0.0,1.0
1529453241986715778,0,1529453241986625668,,0,0,0,0,0,0,0.0,0.65710599693,-2.92715078341,0.0,0.0,0.0,1.0,0.0,-0.738892473773,-2.90758282981,0.0,0.0,0.0,1.0
1529453241987732631,0,1529453241987627250,,0,0,0,0,0,0,0.0,0.65710599693,-2.92715078341,0.0,0.0,0.0,1.0,0.0,-0.738892473773,-2.90758282981,0.0,0.0,0.0,1.0
1529453241988688271,0,1529453241988626386,,0,0,0,0,0,0,0.0,0.65710599693,-2.92715078341,0.0,0.0,0.0,1.0,0.0,-0.738892473773,-2.90758282981,0.0,0.0,0.0,1.0
1529453241989702009,0,1529453241989625936,,0,0,0,0,0,0,0.0,0.65710599693,-2.92715078341,0.0,0.0,0.0,1.0,0.0,-0.738892473773,-2.90758282981,0.0,0.0,0.0,1.0
1529453241990722086,0,1529453241990625947,,0,0,0,0,0,0,0.0,0.65710599693,-2.92715078341,0.0,0.0,0.0,1.0,0.0,-0.738892473773,-2.90758282981,0.0,0.0,0.0,1.0
1529453241991702561,0,1529453241991625446,,0,0,0,0,0,0,0.0,0.65710599693,-2.92715078341,0.0,0.0,0.0,1.0,0.0,-0.738892473773,-2.90758282981,0.0,0.0,0.0,1.0
1529453241992685911,0,1529453241992626153,,0,0,0,0,0,0,0.0,0.65710599693,-2.92715078341,0.0,0.0,0.0,1.0,0.0,-0.738892473773,-2.90758282981,0.0,0.0,0.0,1.0
1529453241993718741,0,1529453241993625724,,0,0,0,0,0,0,0.0,0.65710599693,-2.92715078341,0.0,0.0,0.0,1.0,0.0,-0.738892473773,-2.90758282981,0.0,0.0,0.0,1.0
1529453241994715820,0,1529453241994625515,,0,0,0,0,0,0,0.0,0.65710599693,-2.92715078341,0.0,0.0,0.0,1.0,0.0,-0.738892473773,-2.90758282981,0.0,0.0,0.0,1.0
1529453241995705779,0,1529453241995627107,,0,0,0,0,0,0,0.0,0.65710599693,-2.92715078341,0.0,0.0,0.0,1.0,0.0,-0.738892473773,-2.90758282981,0.0,0.0,0.0,1.0
1529453241996721446,0,1529453241996626440,,0,0,0,0,0,0,0.0,0.65710599693,-2.92715078341,0.0,0.0,0.0,1.0,0.0,-0.738892473773,-2.90758282981,0.0,0.0,0.0,1.0
1529453241997700954,0,1529453241997625850,,0,0,0,0,0,0,0.0,0.65710599693,-2.92715078341,0.0,0.0,0.0,1.0,0.0,-0.738892473773,-2.90758282981,0.0,0.0,0.0,1.0
1529453241998723357,0,1529453241998625898,,0,0,0,0,0,0,0.0,0.65710599693,-2.92715078341,0.0,0.0,0.0,1.0,0.0,-0.738892473773,-2.90758282981,0.0,0.0,0.0,1.0
1529453241999719313,0,1529453241999625816,,0,0,0,0,0,0,0.0,0.65710599693,-2.92715078341,0.0,0.0,0.0,1.0,0.0,-0.738892473773,-2.90758282981,0.0,0.0,0.0,1.0
1529453242000728022,0,1529453242000625734,,0,0,0,0,0,0,0.0,0.65710599693,-2.92715078341,0.0,0.0,0.0,1.0,0.0,-0.738892473773,-2.90758282981,0.0,0.0,0.0,1.0
1529453242001722309,0,1529453242001625844,,0,0,0,0,0,0,0.0,0.65710599693,-2.92715078341,0.0,0.0,0.0,1.0,0.0,-0.738892473773,-2.90758282981,0.0,0.0,0.0,1.0
1529453242002691609,0,1529453242002625509,,0,0,0,0,0,0,0.0,0.65710599693,-2.92715078341,0.0,0.0,0.0,1.0,0.0,-0.738892473773,-2.90758282981,0.0,0.0,0.0,1.0
1529453242003698766,0,1529453242003625651,,0,0,0,0,0,0,0.0,0.65710599693,-2.92715078341,0.0,0.0,0.0,1.0,0.0,-0.738892473773,-2.90758282981,0.0,0.0,0.0,1.0
1529453242004719905,0,1529453242004625758,,0,0,0,0,0,0,0.0,0.65710599693,-2.92715078341,0.0,0.0,0.0,1.0,0.0,-0.738892473773,-2.90758282981,0.0,0.0,0.0,1.0
1529453242005697696,0,1529453242005625578,,0,0,0,0,0,0,0.0,0.65710599693,-2.92715078341,0.0,0.0,0.0,1.0,0.0,-0.738892473773,-2.90758282981,0.0,0.0,0.0,1.0
1529453242006724157,0,1529453242006625532,,0,0,0,0,0,0,0.0,0.65710599693,-2.92715078341,0.0,0.0,0.0,1.0,0.0,-0.738892473773,-2.90758282981,0.0,0.0,0.0,1.0
1529453242007721296,0,1529453242007625738,,0,0,0,0,0,0,0.0,0.65710599693,-2.92715078341,0.0,0.0,0.0,1.0,0.0,-0.738892473773,-2.90758282981,0.0,0.0,0.0,1.0
1529453242008732604,0,1529453242008625845,,0,0,0,0,0,0,0.0,0.65710599693,-2.92715078341,0.0,0.0,0.0,1.0,0.0,-0.738892473773,-2.90758282981,0.0,0.0,0.0,1.0
1529453242009730947,0,1529453242009625682,,0,0,0,0,0,0,0.0,0.65710599693,-2.92715078341,0.0,0.0,0.0,1.0,0.0,-0.738892473773,-2.90758282981,0.0,0.0,0.0,1.0
1529453242010786744,0,1529453242010625632,,0,0,0,0,0,0,0.0,0.693016119943,-2.91885742329,0.0,0.0,0.0,1.0,0.0,-0.704851746344,-2.91602195048,0.0,0.0,0.0,1.0
1529453242011724788,0,1529453242011626200,,0,0,0,0,0,0,0.0,0.755787461887,-2.90323704035,0.0,0.0,0.0,1.0,0.0,-0.658411921855,-2.92685731479,0.0,0.0,0.0,1.0
1529453242012722722,0,1529453242012625781,,0,0,0,0,0,0,0.0,0.755787461887,-2.90323704035,0.0,0.0,0.0,1.0,0.0,-0.658411921855,-2.92685731479,0.0,0.0,0.0,1.0
1529453242013727374,0,1529453242013625781,,0,0,0,0,0,0,0.0,0.755787461887,-2.90323704035,0.0,0.0,0.0,1.0,0.0,-0.658411921855,-2.92685731479,0.0,0.0,0.0,1.0
1529453242014723185,0,1529453242014625629,,0,0,0,0,0,0,0.0,0.755787461887,-2.90323704035,0.0,0.0,0.0,1.0,0.0,-0.658411921855,-2.92685731479,0.0,0.0,0.0,1.0
1529453242015716870,0,1529453242015625991,,0,0,0,0,0,0,0.0,0.755787461887,-2.90323704035,0.0,0.0,0.0,1.0,0.0,-0.658411921855,-2.92685731479,0.0,0.0,0.0,1.0
1529453242016723259,0,1529453242016625767,,0,0,0,0,0,0,0.0,0.755787461887,-2.90323704035,0.0,0.0,0.0,1.0,0.0,-0.658411921855,-2.92685731479,0.0,0.0,0.0,1.0
1529453242017727080,0,1529453242017625720,,0,0,0,0,0,0,0.0,0.755787461887,-2.90323704035,0.0,0.0,0.0,1.0,0.0,-0.658411921855,-2.92685731479,0.0,0.0,0.0,1.0
1529453242018723718,0,1529453242018625540,,0,0,0,0,0,0,0.0,0.755787461887,-2.90323704035,0.0,0.0,0.0,1.0,0.0,-0.658411921855,-2.92685731479,0.0,0.0,0.0,1.0
1529453242019704038,0,1529453242019626679,,0,0,0,0,0,0,0.0,0.755787461887,-2.90323704035,0.0,0.0,0.0,1.0,0.0,-0.658411921855,-2.92685731479,0.0,0.0,0.0,1.0
1529453242020723686,0,1529453242020626066,,0,0,0,0,0,0,0.0,0.755787461887,-2.90323704035,0.0,0.0,0.0,1.0,0.0,-0.658411921855,-2.92685731479,0.0,0.0,0.0,1.0
1529453242021728345,0,1529453242021625677,,0,0,0,0,0,0,0.0,0.755787461887,-2.90323704035,0.0,0.0,0.0,1.0,0.0,-0.658411921855,-2.92685731479,0.0,0.0,0.0,1.0
1529453242022723580,0,1529453242022625579,,0,0,0,0,0,0,0.0,0.755787461887,-2.90323704035,0.0,0.0,0.0,1.0,0.0,-0.658411921855,-2.92685731479,0.0,0.0,0.0,1.0
1529453242023722168,0,1529453242023625821,,0,0,0,0,0,0,0.0,0.755787461887,-2.90323704035,0.0,0.0,0.0,1.0,0.0,-0.658411921855,-2.92685731479,0.0,0.0,0.0,1.0
1529453242024697064,0,1529453242024625900,,0,0,0,0,0,0,0.0,0.755787461887,-2.90323704035,0.0,0.0,0.0,1.0,0.0,-0.658411921855,-2.92685731479,0.0,0.0,0.0,1.0
1529453242025734017,0,1529453242025627164,,0,0,0,0,0,0,0.0,0.755787461887,-2.90323704035,0.0,0.0,0.0,1.0,0.0,-0.658411921855,-2.92685731479,0.0,0.0,0.0,1.0
1529453242026714016,0,1529453242026626077,,0,0,0,0,0,0,0.0,0.755787461887,-2.90323704035,0.0,0.0,0.0,1.0,0.0,-0.658411921855,-2.92685731479,0.0,0.0,0.0,1.0
1529453242027734124,0,1529453242027627379,,0,0,0,0,0,0,0.0,0.755787461887,-2.90323704035,0.0,0.0,0.0,1.0,0.0,-0.658411921855,-2.92685731479,0.0,0.0,0.0,1.0
1529453242028731147,0,1529453242028626321,,0,0,0,0,0,0,0.0,0.755787461887,-2.90323704035,0.0,0.0,0.0,1.0,0.0,-0.658411921855,-2.92685731479,0.0,0.0,0.0,1.0
1529453242029724507,0,1529453242029626399,,0,0,0,0,0,0,0.0,0.755787461887,-2.90323704035,0.0,0.0,0.0,1.0,0.0,-0.658411921855,-2.92685731479,0.0,0.0,0.0,1.0
1529453242030704112,0,1529453242030625728,,0,0,0,0,0,0,0.0,0.755787461887,-2.90323704035,0.0,0.0,0.0,1.0,0.0,-0.658411921855,-2.92685731479,0.0,0.0,0.0,1.0
1529453242031714630,0,1529453242031627326,,0,0,0,0,0,0,0.0,0.755787461887,-2.90323704035,0.0,0.0,0.0,1.0,0.0,-0.658411921855,-2.92685731479,0.0,0.0,0.0,1.0
1529453242032705956,0,1529453242032627538,,0,0,0,0,0,0,0.0,0.755787461887,-2.90323704035,0.0,0.0,0.0,1.0,0.0,-0.658411921855,-2.92685731479,0.0,0.0,0.0,1.0
1529453242033705477,0,1529453242033627482,,0,0,0,0,0,0,0.0,0.755787461887,-2.90323704035,0.0,0.0,0.0,1.0,0.0,-0.658411921855,-2.92685731479,0.0,0.0,0.0,1.0
1529453242034726238,0,1529453242034626246,,0,0,0,0,0,0,0.0,0.755787461887,-2.90323704035,0.0,0.0,0.0,1.0,0.0,-0.658411921855,-2.92685731479,0.0,0.0,0.0,1.0
1529453242035706704,0,1529453242035625663,,0,0,0,0,0,0,0.0,0.755787461887,-2.90323704035,0.0,0.0,0.0,1.0,0.0,-0.658411921855,-2.92685731479,0.0,0.0,0.0,1.0
1529453242036734544,0,1529453242036627200,,0,0,0,0,0,0,0.0,0.755787461887,-2.90323704035,0.0,0.0,0.0,1.0,0.0,-0.658411921855,-2.92685731479,0.0,0.0,0.0,1.0
1529453242037730861,0,1529453242037626184,,0,0,0,0,0,0,0.0,0.755787461887,-2.90323704035,0.0,0.0,0.0,1.0,0.0,-0.658411921855,-2.92685731479,0.0,0.0,0.0,1.0
1529453242038724423,0,1529453242038625981,,0,0,0,0,0,0,0.0,0.755787461887,-2.90323704035,0.0,0.0,0.0,1.0,0.0,-0.658411921855,-2.92685731479,0.0,0.0,0.0,1.0
1529453242039705932,0,1529453242039626269,,0,0,0,0,0,0,0.0,0.755787461887,-2.90323704035,0.0,0.0,0.0,1.0,0.0,-0.658411921855,-2.92685731479,0.0,0.0,0.0,1.0
1529453242040714705,0,1529453242040627307,,0,0,0,0,0,0,0.0,0.755787461887,-2.90323704035,0.0,0.0,0.0,1.0,0.0,-0.658411921855,-2.92685731479,0.0,0.0,0.0,1.0
1529453242041731083,0,1529453242041627427,,0,0,0,0,0,0,0.0,0.755787461887,-2.90323704035,0.0,0.0,0.0,1.0,0.0,-0.658411921855,-2.92685731479,0.0,0.0,0.0,1.0
1529453242042726449,0,1529453242042626374,,0,0,0,0,0,0,0.0,0.755787461887,-2.90323704035,0.0,0.0,0.0,1.0,0.0,-0.658411921855,-2.92685731479,0.0,0.0,0.0,1.0
1529453242043752825,0,1529453242043627468,,0,0,0,0,0,0,0.0,0.755787461887,-2.90323704035,0.0,0.0,0.0,1.0,0.0,-0.658411921855,-2.92685731479,0.0,0.0,0.0,1.0
1529453242044716727,0,1529453242044626949,,0,0,0,0,0,0,0.0,0.755787461887,-2.90323704035,0.0,0.0,0.0,1.0,0.0,-0.658411921855,-2.92685731479,0.0,0.0,0.0,1.0
1529453242045725485,0,1529453242045626138,,0,0,0,0,0,0,0.0,0.755787461887,-2.90323704035,0.0,0.0,0.0,1.0,0.0,-0.658411921855,-2.92685731479,0.0,0.0,0.0,1.0
1529453242046714318,0,1529453242046626648,,0,0,0,0,0,0,0.0,0.755787461887,-2.90323704035,0.0,0.0,0.0,1.0,0.0,-0.658411921855,-2.92685731479,0.0,0.0,0.0,1.0
1529453242047707778,0,1529453242047627854,,0,0,0,0,0,0,0.0,0.755787461887,-2.90323704035,0.0,0.0,0.0,1.0,0.0,-0.658411921855,-2.92685731479,0.0,0.0,0.0,1.0
1529453242048738179,0,1529453242048627552,,0,0,0,0,0,0,0.0,0.755787461887,-2.90323704035,0.0,0.0,0.0,1.0,0.0,-0.658411921855,-2.92685731479,0.0,0.0,0.0,1.0
1529453242049735745,0,1529453242049628024,,0,0,0,0,0,0,0.0,0.755787461887,-2.90323704035,0.0,0.0,0.0,1.0,0.0,-0.658411921855,-2.92685731479,0.0,0.0,0.0,1.0
1529453242050735282,0,1529453242050642243,,0,0,0,0,0,0,0.0,0.802432491735,-2.89069232126,0.0,0.0,0.0,1.0,0.0,-0.61968920998,-2.93529986254,0.0,0.0,0.0,1.0
1529453242051722825,0,1529453242051626952,,0,0,0,0,0,0,0.0,0.834820060299,-2.88150576382,0.0,0.0,0.0,1.0,0.0,-0.587428152975,-2.94192592787,0.0,0.0,0.0,1.0
1529453242052727005,0,1529453242052625975,,0,0,0,0,0,0,0.0,0.834820060299,-2.88150576382,0.0,0.0,0.0,1.0,0.0,-0.587428152975,-2.94192592787,0.0,0.0,0.0,1.0
1529453242053747420,0,1529453242053625645,,0,0,0,0,0,0,0.0,0.834820060299,-2.88150576382,0.0,0.0,0.0,1.0,0.0,-0.587428152975,-2.94192592787,0.0,0.0,0.0,1.0
1529453242054713057,0,1529453242054625469,,0,0,0,0,0,0,0.0,0.834820060299,-2.88150576382,0.0,0.0,0.0,1.0,0.0,-0.587428152975,-2.94192592787,0.0,0.0,0.0,1.0
1529453242055690572,0,1529453242055625067,,0,0,0,0,0,0,0.0,0.834820060299,-2.88150576382,0.0,0.0,0.0,1.0,0.0,-0.587428152975,-2.94192592787,0.0,0.0,0.0,1.0
1529453242056698176,0,1529453242056625717,,0,0,0,0,0,0,0.0,0.834820060299,-2.88150576382,0.0,0.0,0.0,1.0,0.0,-0.587428152975,-2.94192592787,0.0,0.0,0.0,1.0
1529453242057698206,0,1529453242057625763,,0,0,0,0,0,0,0.0,0.834820060299,-2.88150576382,0.0,0.0,0.0,1.0,0.0,-0.587428152975,-2.94192592787,0.0,0.0,0.0,1.0
1529453242058719257,0,1529453242058625452,,0,0,0,0,0,0,0.0,0.834820060299,-2.88150576382,0.0,0.0,0.0,1.0,0.0,-0.587428152975,-2.94192592787,0.0,0.0,0.0,1.0
1529453242059719464,0,1529453242059626042,,0,0,0,0,0,0,0.0,0.834820060299,-2.88150576382,0.0,0.0,0.0,1.0,0.0,-0.587428152975,-2.94192592787,0.0,0.0,0.0,1.0
1529453242060701800,0,1529453242060626022,,0,0,0,0,0,0,0.0,0.834820060299,-2.88150576382,0.0,0.0,0.0,1.0,0.0,-0.587428152975,-2.94192592787,0.0,0.0,0.0,1.0
1529453242061732349,0,1529453242061625624,,0,0,0,0,0,0,0.0,0.834820060299,-2.88150576382,0.0,0.0,0.0,1.0,0.0,-0.587428152975,-2.94192592787,0.0,0.0,0.0,1.0
1529453242062720283,0,1529453242062625566,,0,0,0,0,0,0,0.0,0.834820060299,-2.88150576382,0.0,0.0,0.0,1.0,0.0,-0.587428152975,-2.94192592787,0.0,0.0,0.0,1.0
1529453242063719934,0,1529453242063625770,,0,0,0,0,0,0,0.0,0.834820060299,-2.88150576382,0.0,0.0,0.0,1.0,0.0,-0.587428152975,-2.94192592787,0.0,0.0,0.0,1.0
1529453242064701562,0,1529453242064625698,,0,0,0,0,0,0,0.0,0.834820060299,-2.88150576382,0.0,0.0,0.0,1.0,0.0,-0.587428152975,-2.94192592787,0.0,0.0,0.0,1.0
1529453242065736408,0,1529453242065625649,,0,0,0,0,0,0,0.0,0.834820060299,-2.88150576382,0.0,0.0,0.0,1.0,0.0,-0.587428152975,-2.94192592787,0.0,0.0,0.0,1.0
1529453242066695263,0,1529453242066625646,,0,0,0,0,0,0,0.0,0.834820060299,-2.88150576382,0.0,0.0,0.0,1.0,0.0,-0.587428152975,-2.94192592787,0.0,0.0,0.0,1.0
1529453242067737782,0,1529453242067625764,,0,0,0,0,0,0,0.0,0.834820060299,-2.88150576382,0.0,0.0,0.0,1.0,0.0,-0.587428152975,-2.94192592787,0.0,0.0,0.0,1.0
1529453242068748911,0,1529453242068625811,,0,0,0,0,0,0,0.0,0.834820060299,-2.88150576382,0.0,0.0,0.0,1.0,0.0,-0.587428152975,-2.94192592787,0.0,0.0,0.0,1.0
1529453242069691733,0,1529453242069625330,,0,0,0,0,0,0,0.0,0.834820060299,-2.88150576382,0.0,0.0,0.0,1.0,0.0,-0.587428152975,-2.94192592787,0.0,0.0,0.0,1.0
1529453242070719132,0,1529453242070625574,,0,0,0,0,0,0,0.0,0.834820060299,-2.88150576382,0.0,0.0,0.0,1.0,0.0,-0.587428152975,-2.94192592787,0.0,0.0,0.0,1.0
1529453242071701654,0,1529453242071627760,,0,0,0,0,0,0,0.0,0.834820060299,-2.88150576382,0.0,0.0,0.0,1.0,0.0,-0.587428152975,-2.94192592787,0.0,0.0,0.0,1.0
1529453242072735261,0,1529453242072626253,,0,0,0,0,0,0,0.0,0.834820060299,-2.88150576382,0.0,0.0,0.0,1.0,0.0,-0.587428152975,-2.94192592787,0.0,0.0,0.0,1.0
1529453242073699597,0,1529453242073626100,,0,0,0,0,0,0,0.0,0.834820060299,-2.88150576382,0.0,0.0,0.0,1.0,0.0,-0.587428152975,-2.94192592787,0.0,0.0,0.0,1.0
1529453242074722809,0,1529453242074647832,,0,0,0,0,0,0,0.0,0.834820060299,-2.88150576382,0.0,0.0,0.0,1.0,0.0,-0.587428152975,-2.94192592787,0.0,0.0,0.0,1.0
1529453242075698407,0,1529453242075626891,,0,0,0,0,0,0,0.0,0.834820060299,-2.88150576382,0.0,0.0,0.0,1.0,0.0,-0.587428152975,-2.94192592787,0.0,0.0,0.0,1.0
1529453242076701397,0,1529453242076626258,,0,0,0,0,0,0,0.0,0.834820060299,-2.88150576382,0.0,0.0,0.0,1.0,0.0,-0.587428152975,-2.94192592787,0.0,0.0,0.0,1.0
1529453242077737469,0,1529453242077626165,,0,0,0,0,0,0,0.0,0.834820060299,-2.88150576382,0.0,0.0,0.0,1.0,0.0,-0.587428152975,-2.94192592787,0.0,0.0,0.0,1.0
1529453242078696597,0,1529453242078625867,,0,0,0,0,0,0,0.0,0.885601016933,-2.86630613138,0.0,0.0,0.0,1.0,0.0,-0.528871804356,-2.95301449616,0.0,0.0,0.0,1.0
1529453242079700099,0,1529453242079626304,,0,0,0,0,0,0,0.0,0.886944589908,-2.86589066338,0.0,0.0,0.0,1.0,0.0,-0.527019889285,-2.95334556669,0.0,0.0,0.0,1.0
1529453242080699032,0,1529453242080625924,,0,0,0,0,0,0,0.0,0.886944589908,-2.86589066338,0.0,0.0,0.0,1.0,0.0,-0.527019889285,-2.95334556669,0.0,0.0,0.0,1.0
1529453242081699533,0,1529453242081625569,,0,0,0,0,0,0,0.0,0.886944589908,-2.86589066338,0.0,0.0,0.0,1.0,0.0,-0.527019889285,-2.95334556669,0.0,0.0,0.0,1.0
1529453242082720818,0,1529453242082625632,,0,0,0,0,0,0,0.0,0.886944589908,-2.86589066338,0.0,0.0,0.0,1.0,0.0,-0.527019889285,-2.95334556669,0.0,0.0,0.0,1.0
1529453242083695556,0,1529453242083625878,,0,0,0,0,0,0,0.0,0.886944589908,-2.86589066338,0.0,0.0,0.0,1.0,0.0,-0.527019889285,-2.95334556669,0.0,0.0,0.0,1.0
1529453242084724563,0,1529453242084625750,,0,0,0,0,0,0,0.0,0.886944589908,-2.86589066338,0.0,0.0,0.0,1.0,0.0,-0.527019889285,-2.95334556669,0.0,0.0,0.0,1.0
1529453242085753114,0,1529453242085626031,,0,0,0,0,0,0,0.0,0.886944589908,-2.86589066338,0.0,0.0,0.0,1.0,0.0,-0.527019889285,-2.95334556669,0.0,0.0,0.0,1.0
1529453242086696725,0,1529453242086625630,,0,0,0,0,0,0,0.0,0.886944589908,-2.86589066338,0.0,0.0,0.0,1.0,0.0,-0.527019889285,-2.95334556669,0.0,0.0,0.0,1.0
1529453242087734059,0,1529453242087625912,,0,0,0,0,0,0,0.0,0.886944589908,-2.86589066338,0.0,0.0,0.0,1.0,0.0,-0.527019889285,-2.95334556669,0.0,0.0,0.0,1.0
1529453242088743336,0,1529453242088625800,,0,0,0,0,0,0,0.0,0.886944589908,-2.86589066338,0.0,0.0,0.0,1.0,0.0,-0.527019889285,-2.95334556669,0.0,0.0,0.0,1.0
1529453242089707281,0,1529453242089625776,,0,0,0,0,0,0,0.0,0.886944589908,-2.86589066338,0.0,0.0,0.0,1.0,0.0,-0.527019889285,-2.95334556669,0.0,0.0,0.0,1.0
1529453242090699886,0,1529453242090625680,,0,0,0,0,0,0,0.0,0.886944589908,-2.86589066338,0.0,0.0,0.0,1.0,0.0,-0.527019889285,-2.95334556669,0.0,0.0,0.0,1.0
1529453242091746793,0,1529453242091608881,,0,0,0,0,0,0,0.0,0.886944589908,-2.86589066338,0.0,0.0,0.0,1.0,0.0,-0.527019889285,-2.95334556669,0.0,0.0,0.0,1.0
1529453242092708977,0,1529453242092638402,,0,0,0,0,0,0,0.0,0.886944589908,-2.86589066338,0.0,0.0,0.0,1.0,0.0,-0.527019889285,-2.95334556669,0.0,0.0,0.0,1.0
1529453242093742691,0,1529453242093637205,,0,0,0,0,0,0,0.0,0.886944589908,-2.86589066338,0.0,0.0,0.0,1.0,0.0,-0.527019889285,-2.95334556669,0.0,0.0,0.0,1.0
1529453242094746812,0,1529453242094626287,,0,0,0,0,0,0,0.0,0.886944589908,-2.86589066338,0.0,0.0,0.0,1.0,0.0,-0.527019889285,-2.95334556669,0.0,0.0,0.0,1.0
1529453242095755854,0,1529453242095637582,,0,0,0,0,0,0,0.0,0.886944589908,-2.86589066338,0.0,0.0,0.0,1.0,0.0,-0.527019889285,-2.95334556669,0.0,0.0,0.0,1.0
1529453242096706260,0,1529453242096627028,,0,0,0,0,0,0,0.0,0.886944589908,-2.86589066338,0.0,0.0,0.0,1.0,0.0,-0.527019889285,-2.95334556669,0.0,0.0,0.0,1.0
1529453242097696607,0,1529453242097627096,,0,0,0,0,0,0,0.0,0.886944589908,-2.86589066338,0.0,0.0,0.0,1.0,0.0,-0.527019889285,-2.95334556669,0.0,0.0,0.0,1.0
1529453242098747967,0,1529453242098626189,,0,0,0,0,0,0,0.0,0.886944589908,-2.86589066338,0.0,0.0,0.0,1.0,0.0,-0.527019889285,-2.95334556669,0.0,0.0,0.0,1.0
1529453242099758405,0,1529453242099638190,,0,0,0,0,0,0,0.0,0.886944589908,-2.86589066338,0.0,0.0,0.0,1.0,0.0,-0.527019889285,-2.95334556669,0.0,0.0,0.0,1.0
1529453242100717659,0,1529453242100638588,,0,0,0,0,0,0,0.0,0.886944589908,-2.86589066338,0.0,0.0,0.0,1.0,0.0,-0.527019889285,-2.95334556669,0.0,0.0,0.0,1.0
1529453242101731330,0,1529453242101626410,,0,0,0,0,0,0,0.0,0.93132055404,-2.85177874766,0.0,0.0,0.0,1.0,0.0,-0.477147569889,-2.9618119786,0.0,0.0,0.0,1.0
1529453242102701451,0,1529453242102625753,,0,0,0,0,0,0,0.0,0.933350119982,-2.8511151421,0.0,0.0,0.0,1.0,0.0,-0.47621639508,-2.96196184058,0.0,0.0,0.0,1.0
1529453242103724112,0,1529453242103627761,,0,0,0,0,0,0,0.0,0.933350119982,-2.8511151421,0.0,0.0,0.0,1.0,0.0,-0.47621639508,-2.96196184058,0.0,0.0,0.0,1.0
1529453242104765085,0,1529453242104638318,,0,0,0,0,0,0,0.0,0.933350119982,-2.8511151421,0.0,0.0,0.0,1.0,0.0,-0.47621639508,-2.96196184058,0.0,0.0,0.0,1.0
1529453242105736098,0,1529453242105638966,,0,0,0,0,0,0,0.0,0.933350119982,-2.8511151421,0.0,0.0,0.0,1.0,0.0,-0.47621639508,-2.96196184058,0.0,0.0,0.0,1.0
1529453242106747391,0,1529453242106626160,,0,0,0,0,0,0,0.0,0.933350119982,-2.8511151421,0.0,0.0,0.0,1.0,0.0,-0.47621639508,-2.96196184058,0.0,0.0,0.0,1.0
1529453242107766259,0,1529453242107639290,,0,0,0,0,0,0,0.0,0.933350119982,-2.8511151421,0.0,0.0,0.0,1.0,0.0,-0.47621639508,-2.96196184058,0.0,0.0,0.0,1.0
1529453242108795244,0,1529453242108640204,,0,0,0,0,0,0,0.0,0.933350119982,-2.8511151421,0.0,0.0,0.0,1.0,0.0,-0.47621639508,-2.96196184058,0.0,0.0,0.0,1.0
1529453242109737762,0,1529453242109638877,,0,0,0,0,0,0,0.0,0.933350119982,-2.8511151421,0.0,0.0,0.0,1.0,0.0,-0.47621639508,-2.96196184058,0.0,0.0,0.0,1.0
1529453242110701232,0,1529453242110626081,,0,0,0,0,0,0,0.0,0.933350119982,-2.8511151421,0.0,0.0,0.0,1.0,0.0,-0.47621639508,-2.96196184058,0.0,0.0,0.0,1.0
1529453242111763182,0,1529453242111638795,,0,0,0,0,0,0,0.0,0.933350119982,-2.8511151421,0.0,0.0,0.0,1.0,0.0,-0.47621639508,-2.96196184058,0.0,0.0,0.0,1.0
1529453242112747407,0,1529453242112638764,,0,0,0,0,0,0,0.0,0.933350119982,-2.8511151421,0.0,0.0,0.0,1.0,0.0,-0.47621639508,-2.96196184058,0.0,0.0,0.0,1.0
1529453242113750986,0,1529453242113639022,,0,0,0,0,0,0,0.0,0.933350119982,-2.8511151421,0.0,0.0,0.0,1.0,0.0,-0.47621639508,-2.96196184058,0.0,0.0,0.0,1.0
1529453242114711134,0,1529453242114626024,,0,0,0,0,0,0,0.0,0.933350119982,-2.8511151421,0.0,0.0,0.0,1.0,0.0,-0.47621639508,-2.96196184058,0.0,0.0,0.0,1.0
1529453242115762842,0,1529453242115639326,,0,0,0,0,0,0,0.0,0.933350119982,-2.8511151421,0.0,0.0,0.0,1.0,0.0,-0.47621639508,-2.96196184058,0.0,0.0,0.0,1.0
1529453242116746287,0,1529453242116637392,,0,0,0,0,0,0,0.0,0.933350119982,-2.8511151421,0.0,0.0,0.0,1.0,0.0,-0.47621639508,-2.96196184058,0.0,0.0,0.0,1.0
1529453242117747381,0,1529453242117639357,,0,0,0,0,0,0,0.0,0.933350119982,-2.8511151421,0.0,0.0,0.0,1.0,0.0,-0.47621639508,-2.96196184058,0.0,0.0,0.0,1.0
1529453242118771900,0,1529453242118626098,,0,0,0,0,0,0,0.0,0.933350119982,-2.8511151421,0.0,0.0,0.0,1.0,0.0,-0.47621639508,-2.96196184058,0.0,0.0,0.0,1.0
1529453242119751215,0,1529453242119626659,,0,0,0,0,0,0,0.0,0.933350119982,-2.8511151421,0.0,0.0,0.0,1.0,0.0,-0.47621639508,-2.96196184058,0.0,0.0,0.0,1.0
1529453242120716879,0,1529453242120637154,,0,0,0,0,0,0,0.0,0.933350119982,-2.8511151421,0.0,0.0,0.0,1.0,0.0,-0.47621639508,-2.96196184058,0.0,0.0,0.0,1.0
1529453242121747587,0,1529453242121640358,,0,0,0,0,0,0,0.0,0.933350119982,-2.8511151421,0.0,0.0,0.0,1.0,0.0,-0.47621639508,-2.96196184058,0.0,0.0,0.0,1.0
1529453242122745394,0,1529453242122625894,,0,0,0,0,0,0,0.0,0.933350119982,-2.8511151421,0.0,0.0,0.0,1.0,0.0,-0.47621639508,-2.96196184058,0.0,0.0,0.0,1.0
1529453242123757005,0,1529453242123637593,,0,0,0,0,0,0,0.0,0.933350119982,-2.8511151421,0.0,0.0,0.0,1.0,0.0,-0.47621639508,-2.96196184058,0.0,0.0,0.0,1.0
1529453242124725420,0,1529453242124626620,,0,0,0,0,0,0,0.0,0.979299127195,-2.83566098458,0.0,0.0,0.0,1.0,0.0,-0.439097352727,-2.96769161384,0.0,0.0,0.0,1.0
1529453242125740886,0,1529453242125626703,,0,0,0,0,0,0,0.0,0.980296710393,-2.83531627153,0.0,0.0,0.0,1.0,0.0,-0.436950374314,-2.96800848557,0.0,0.0,0.0,1.0
1529453242126728000,0,1529453242126625982,,0,0,0,0,0,0,0.0,0.980296710393,-2.83531627153,0.0,0.0,0.0,1.0,0.0,-0.436950374314,-2.96800848557,0.0,0.0,0.0,1.0
1529453242127760280,0,1529453242127637190,,0,0,0,0,0,0,0.0,0.980296710393,-2.83531627153,0.0,0.0,0.0,1.0,0.0,-0.436950374314,-2.96800848557,0.0,0.0,0.0,1.0
1529453242128744503,0,1529453242128637105,,0,0,0,0,0,0,0.0,0.980296710393,-2.83531627153,0.0,0.0,0.0,1.0,0.0,-0.436950374314,-2.96800848557,0.0,0.0,0.0,1.0
1529453242129743783,0,1529453242129637425,,0,0,0,0,0,0,0.0,0.980296710393,-2.83531627153,0.0,0.0,0.0,1.0,0.0,-0.436950374314,-2.96800848557,0.0,0.0,0.0,1.0
1529453242130734056,0,1529453242130625848,,0,0,0,0,0,0,0.0,0.980296710393,-2.83531627153,0.0,0.0,0.0,1.0,0.0,-0.436950374314,-2.96800848557,0.0,0.0,0.0,1.0
1529453242131727000,0,1529453242131637117,,0,0,0,0,0,0,0.0,0.980296710393,-2.83531627153,0.0,0.0,0.0,1.0,0.0,-0.436950374314,-2.96800848557,0.0,0.0,0.0,1.0
1529453242132719486,0,1529453242132637503,,0,0,0,0,0,0,0.0,0.980296710393,-2.83531627153,0.0,0.0,0.0,1.0,0.0,-0.436950374314,-2.96800848557,0.0,0.0,0.0,1.0
1529453242133730194,0,1529453242133637478,,0,0,0,0,0,0,0.0,0.980296710393,-2.83531627153,0.0,0.0,0.0,1.0,0.0,-0.436950374314,-2.96800848557,0.0,0.0,0.0,1.0
1529453242134701945,0,1529453242134626148,,0,0,0,0,0,0,0.0,0.980296710393,-2.83531627153,0.0,0.0,0.0,1.0,0.0,-0.436950374314,-2.96800848557,0.0,0.0,0.0,1.0
1529453242135751543,0,1529453242135637901,,0,0,0,0,0,0,0.0,0.980296710393,-2.83531627153,0.0,0.0,0.0,1.0,0.0,-0.436950374314,-2.96800848557,0.0,0.0,0.0,1.0
1529453242136743731,0,1529453242136636985,,0,0,0,0,0,0,0.0,0.980296710393,-2.83531627153,0.0,0.0,0.0,1.0,0.0,-0.436950374314,-2.96800848557,0.0,0.0,0.0,1.0
1529453242137758497,0,1529453242137637162,,0,0,0,0,0,0,0.0,0.980296710393,-2.83531627153,0.0,0.0,0.0,1.0,0.0,-0.436950374314,-2.96800848557,0.0,0.0,0.0,1.0
1529453242138725438,0,1529453242138626020,,0,0,0,0,0,0,0.0,0.980296710393,-2.83531627153,0.0,0.0,0.0,1.0,0.0,-0.436950374314,-2.96800848557,0.0,0.0,0.0,1.0
1529453242139757824,0,1529453242139637077,,0,0,0,0,0,0,0.0,0.980296710393,-2.83531627153,0.0,0.0,0.0,1.0,0.0,-0.436950374314,-2.96800848557,0.0,0.0,0.0,1.0
1529453242140728956,0,1529453242140626674,,0,0,0,0,0,0,0.0,0.980296710393,-2.83531627153,0.0,0.0,0.0,1.0,0.0,-0.436950374314,-2.96800848557,0.0,0.0,0.0,1.0
1529453242141684685,0,1529453242141626552,,0,0,0,0,0,0,0.0,0.980296710393,-2.83531627153,0.0,0.0,0.0,1.0,0.0,-0.436950374314,-2.96800848557,0.0,0.0,0.0,1.0
1529453242142709944,0,1529453242142626135,,0,0,0,0,0,0,0.0,0.980296710393,-2.83531627153,0.0,0.0,0.0,1.0,0.0,-0.436950374314,-2.96800848557,0.0,0.0,0.0,1.0
1529453242143739446,0,1529453242143637222,,0,0,0,0,0,0,0.0,0.980296710393,-2.83531627153,0.0,0.0,0.0,1.0,0.0,-0.436950374314,-2.96800848557,0.0,0.0,0.0,1.0
1529453242144725418,0,1529453242144637086,,0,0,0,0,0,0,0.0,0.980296710393,-2.83531627153,0.0,0.0,0.0,1.0,0.0,-0.436950374314,-2.96800848557,0.0,0.0,0.0,1.0
1529453242145729504,0,1529453242145637413,,0,0,0,0,0,0,0.0,0.980296710393,-2.83531627153,0.0,0.0,0.0,1.0,0.0,-0.436950374314,-2.96800848557,0.0,0.0,0.0,1.0
1529453242146708204,0,1529453242146626063,,0,0,0,0,0,0,0.0,0.980296710393,-2.83531627153,0.0,0.0,0.0,1.0,0.0,-0.436950374314,-2.96800848557,0.0,0.0,0.0,1.0
1529453242147706234,0,1529453242147626253,,0,0,0,0,0,0,0.0,1.02646102042,-2.81893202713,0.0,0.0,0.0,1.0,0.0,-0.402957229397,-2.97281440243,0.0,0.0,0.0,1.0
1529453242148737819,0,1529453242148626203,,0,0,0,0,0,0,0.0,1.02903597911,-2.81799307198,0.0,0.0,0.0,1.0,0.0,-0.402145838144,-2.97292427163,0.0,0.0,0.0,1.0
1529453242149744721,0,1529453242149637463,,0,0,0,0,0,0,0.0,1.02903597911,-2.81799307198,0.0,0.0,0.0,1.0,0.0,-0.402145838144,-2.97292427163,0.0,0.0,0.0,1.0
1529453242150707822,0,1529453242150625709,,0,0,0,0,0,0,0.0,1.02903597911,-2.81799307198,0.0,0.0,0.0,1.0,0.0,-0.402145838144,-2.97292427163,0.0,0.0,0.0,1.0
1529453242151758269,0,1529453242151637027,,0,0,0,0,0,0,0.0,1.02903597911,-2.81799307198,0.0,0.0,0.0,1.0,0.0,-0.402145838144,-2.97292427163,0.0,0.0,0.0,1.0
1529453242152744167,0,1529453242152636886,,0,0,0,0,0,0,0.0,1.02903597911,-2.81799307198,0.0,0.0,0.0,1.0,0.0,-0.402145838144,-2.97292427163,0.0,0.0,0.0,1.0
1529453242153758920,0,1529453242153636822,,0,0,0,0,0,0,0.0,1.02903597911,-2.81799307198,0.0,0.0,0.0,1.0,0.0,-0.402145838144,-2.97292427163,0.0,0.0,0.0,1.0
1529453242154706937,0,1529453242154625637,,0,0,0,0,0,0,0.0,1.02903597911,-2.81799307198,0.0,0.0,0.0,1.0,0.0,-0.402145838144,-2.97292427163,0.0,0.0,0.0,1.0
1529453242155723978,0,1529453242155636754,,0,0,0,0,0,0,0.0,1.02903597911,-2.81799307198,0.0,0.0,0.0,1.0,0.0,-0.402145838144,-2.97292427163,0.0,0.0,0.0,1.0
1529453242156750195,0,1529453242156637146,,0,0,0,0,0,0,0.0,1.02903597911,-2.81799307198,0.0,0.0,0.0,1.0,0.0,-0.402145838144,-2.97292427163,0.0,0.0,0.0,1.0
1529453242157728322,0,1529453242157636754,,0,0,0,0,0,0,0.0,1.02903597911,-2.81799307198,0.0,0.0,0.0,1.0,0.0,-0.402145838144,-2.97292427163,0.0,0.0,0.0,1.0
1529453242158700013,0,1529453242158626046,,0,0,0,0,0,0,0.0,1.02903597911,-2.81799307198,0.0,0.0,0.0,1.0,0.0,-0.402145838144,-2.97292427163,0.0,0.0,0.0,1.0
1529453242159757521,0,1529453242159637400,,0,0,0,0,0,0,0.0,1.02903597911,-2.81799307198,0.0,0.0,0.0,1.0,0.0,-0.402145838144,-2.97292427163,0.0,0.0,0.0,1.0
1529453242160734223,0,1529453242160627054,,0,0,0,0,0,0,0.0,1.02903597911,-2.81799307198,0.0,0.0,0.0,1.0,0.0,-0.402145838144,-2.97292427163,0.0,0.0,0.0,1.0
1529453242161758299,0,1529453242161637248,,0,0,0,0,0,0,0.0,1.02903597911,-2.81799307198,0.0,0.0,0.0,1.0,0.0,-0.402145838144,-2.97292427163,0.0,0.0,0.0,1.0
1529453242162707107,0,1529453242162625726,,0,0,0,0,0,0,0.0,1.02903597911,-2.81799307198,0.0,0.0,0.0,1.0,0.0,-0.402145838144,-2.97292427163,0.0,0.0,0.0,1.0
1529453242163699458,0,1529453242163626400,,0,0,0,0,0,0,0.0,1.02903597911,-2.81799307198,0.0,0.0,0.0,1.0,0.0,-0.402145838144,-2.97292427163,0.0,0.0,0.0,1.0
1529453242164682020,0,1529453242164626190,,0,0,0,0,0,0,0.0,1.02903597911,-2.81799307198,0.0,0.0,0.0,1.0,0.0,-0.402145838144,-2.97292427163,0.0,0.0,0.0,1.0
1529453242165741695,0,1529453242165636966,,0,0,0,0,0,0,0.0,1.02903597911,-2.81799307198,0.0,0.0,0.0,1.0,0.0,-0.402145838144,-2.97292427163,0.0,0.0,0.0,1.0
1529453242166701659,0,1529453242166625999,,0,0,0,0,0,0,0.0,1.02903597911,-2.81799307198,0.0,0.0,0.0,1.0,0.0,-0.402145838144,-2.97292427163,0.0,0.0,0.0,1.0
1529453242167718418,0,1529453242167637045,,0,0,0,0,0,0,0.0,1.02903597911,-2.81799307198,0.0,0.0,0.0,1.0,0.0,-0.402145838144,-2.97292427163,0.0,0.0,0.0,1.0
1529453242168731338,0,1529453242168636865,,0,0,0,0,0,0,0.0,1.02903597911,-2.81799307198,0.0,0.0,0.0,1.0,0.0,-0.402145838144,-2.97292427163,0.0,0.0,0.0,1.0
1529453242169688507,0,1529453242169625182,,0,0,0,0,0,0,0.0,1.07030194489,-2.80257983772,0.0,0.0,0.0,1.0,0.0,-0.363173238779,-2.97793639936,0.0,0.0,0.0,1.0
1529453242170766588,0,1529453242170641417,,0,0,0,0,0,0,0.0,1.07222099818,-2.80184620046,0.0,0.0,0.0,1.0,0.0,-0.362112205481,-2.9780656055,0.0,0.0,0.0,1.0
1529453242171741578,0,1529453242171638221,,0,0,0,0,0,0,0.0,1.07222099818,-2.80184620046,0.0,0.0,0.0,1.0,0.0,-0.362112205481,-2.9780656055,0.0,0.0,0.0,1.0
1529453242172707526,0,1529453242172627405,,0,0,0,0,0,0,0.0,1.07222099818,-2.80184620046,0.0,0.0,0.0,1.0,0.0,-0.362112205481,-2.9780656055,0.0,0.0,0.0,1.0
1529453242173719044,0,1529453242173637733,,0,0,0,0,0,0,0.0,1.07222099818,-2.80184620046,0.0,0.0,0.0,1.0,0.0,-0.362112205481,-2.9780656055,0.0,0.0,0.0,1.0
1529453242174707680,0,1529453242174626491,,0,0,0,0,0,0,0.0,1.07222099818,-2.80184620046,0.0,0.0,0.0,1.0,0.0,-0.362112205481,-2.9780656055,0.0,0.0,0.0,1.0
1529453242175709765,0,1529453242175627832,,0,0,0,0,0,0,0.0,1.07222099818,-2.80184620046,0.0,0.0,0.0,1.0,0.0,-0.362112205481,-2.9780656055,0.0,0.0,0.0,1.0
1529453242176734472,0,1529453242176627317,,0,0,0,0,0,0,0.0,1.07222099818,-2.80184620046,0.0,0.0,0.0,1.0,0.0,-0.362112205481,-2.9780656055,0.0,0.0,0.0,1.0
1529453242177733520,0,1529453242177627385,,0,0,0,0,0,0,0.0,1.07222099818,-2.80184620046,0.0,0.0,0.0,1.0,0.0,-0.362112205481,-2.9780656055,0.0,0.0,0.0,1.0
1529453242178708876,0,1529453242178626553,,0,0,0,0,0,0,0.0,1.07222099818,-2.80184620046,0.0,0.0,0.0,1.0,0.0,-0.362112205481,-2.9780656055,0.0,0.0,0.0,1.0
1529453242179708214,0,1529453242179627404,,0,0,0,0,0,0,0.0,1.07222099818,-2.80184620046,0.0,0.0,0.0,1.0,0.0,-0.362112205481,-2.9780656055,0.0,0.0,0.0,1.0
1529453242180732594,0,1529453242180627575,,0,0,0,0,0,0,0.0,1.07222099818,-2.80184620046,0.0,0.0,0.0,1.0,0.0,-0.362112205481,-2.9780656055,0.0,0.0,0.0,1.0
1529453242181724080,0,1529453242181625677,,0,0,0,0,0,0,0.0,1.07222099818,-2.80184620046,0.0,0.0,0.0,1.0,0.0,-0.362112205481,-2.9780656055,0.0,0.0,0.0,1.0
1529453242182701806,0,1529453242182626413,,0,0,0,0,0,0,0.0,1.07222099818,-2.80184620046,0.0,0.0,0.0,1.0,0.0,-0.362112205481,-2.9780656055,0.0,0.0,0.0,1.0
1529453242183708250,0,1529453242183627967,,0,0,0,0,0,0,0.0,1.07222099818,-2.80184620046,0.0,0.0,0.0,1.0,0.0,-0.362112205481,-2.9780656055,0.0,0.0,0.0,1.0
1529453242184738649,0,1529453242184627396,,0,0,0,0,0,0,0.0,1.07222099818,-2.80184620046,0.0,0.0,0.0,1.0,0.0,-0.362112205481,-2.9780656055,0.0,0.0,0.0,1.0
1529453242185697280,0,1529453242185632862,,0,0,0,0,0,0,0.0,1.07222099818,-2.80184620046,0.0,0.0,0.0,1.0,0.0,-0.362112205481,-2.9780656055,0.0,0.0,0.0,1.0
1529453242186735538,0,1529453242186626290,,0,0,0,0,0,0,0.0,1.07222099818,-2.80184620046,0.0,0.0,0.0,1.0,0.0,-0.362112205481,-2.9780656055,0.0,0.0,0.0,1.0
1529453242187737962,0,1529453242187625756,,0,0,0,0,0,0,0.0,1.07222099818,-2.80184620046,0.0,0.0,0.0,1.0,0.0,-0.362112205481,-2.9780656055,0.0,0.0,0.0,1.0
1529453242188731950,0,1529453242188626010,,0,0,0,0,0,0,0.0,1.07222099818,-2.80184620046,0.0,0.0,0.0,1.0,0.0,-0.362112205481,-2.9780656055,0.0,0.0,0.0,1.0
1529453242189736314,0,1529453242189625856,,0,0,0,0,0,0,0.0,1.07222099818,-2.80184620046,0.0,0.0,0.0,1.0,0.0,-0.362112205481,-2.9780656055,0.0,0.0,0.0,1.0
1529453242190700625,0,1529453242190625450,,0,0,0,0,0,0,0.0,1.07222099818,-2.80184620046,0.0,0.0,0.0,1.0,0.0,-0.362112205481,-2.9780656055,0.0,0.0,0.0,1.0
1529453242191739888,0,1529453242191626576,,0,0,0,0,0,0,0.0,1.07222099818,-2.80184620046,0.0,0.0,0.0,1.0,0.0,-0.362112205481,-2.9780656055,0.0,0.0,0.0,1.0
1529453242192728573,0,1529453242192625949,,0,0,0,0,0,0,0.0,1.1210337039,-2.7826755892,0.0,0.0,0.0,1.0,0.0,-0.31702052963,-2.98320263874,0.0,0.0,0.0,1.0
1529453242193734244,0,1529453242193625566,,0,0,0,0,0,0,0.0,1.12329602846,-2.7817631158,0.0,0.0,0.0,1.0,0.0,-0.314165666393,-2.98350463952,0.0,0.0,0.0,1.0
1529453242194733121,0,1529453242194625372,,0,0,0,0,0,0,0.0,1.12329602846,-2.7817631158,0.0,0.0,0.0,1.0,0.0,-0.314165666393,-2.98350463952,0.0,0.0,0.0,1.0
1529453242195747818,0,1529453242195624892,,0,0,0,0,0,0,0.0,1.12329602846,-2.7817631158,0.0,0.0,0.0,1.0,0.0,-0.314165666393,-2.98350463952,0.0,0.0,0.0,1.0
1529453242196727003,0,1529453242196625264,,0,0,0,0,0,0,0.0,1.12329602846,-2.7817631158,0.0,0.0,0.0,1.0,0.0,-0.314165666393,-2.98350463952,0.0,0.0,0.0,1.0
1529453242197702545,0,1529453242197625604,,0,0,0,0,0,0,0.0,1.12329602846,-2.7817631158,0.0,0.0,0.0,1.0,0.0,-0.314165666393,-2.98350463952,0.0,0.0,0.0,1.0
1529453242198762389,0,1529453242198625252,,0,0,0,0,0,0,0.0,1.12329602846,-2.7817631158,0.0,0.0,0.0,1.0,0.0,-0.314165666393,-2.98350463952,0.0,0.0,0.0,1.0
1529453242199709539,0,1529453242199624617,,0,0,0,0,0,0,0.0,1.12329602846,-2.7817631158,0.0,0.0,0.0,1.0,0.0,-0.314165666393,-2.98350463952,0.0,0.0,0.0,1.0
1529453242200736568,0,1529453242200624785,,0,0,0,0,0,0,0.0,1.12329602846,-2.7817631158,0.0,0.0,0.0,1.0,0.0,-0.314165666393,-2.98350463952,0.0,0.0,0.0,1.0
1529453242201726915,0,1529453242201625246,,0,0,0,0,0,0,0.0,1.12329602846,-2.7817631158,0.0,0.0,0.0,1.0,0.0,-0.314165666393,-2.98350463952,0.0,0.0,0.0,1.0
1529453242202731957,0,1529453242202625212,,0,0,0,0,0,0,0.0,1.12329602846,-2.7817631158,0.0,0.0,0.0,1.0,0.0,-0.314165666393,-2.98350463952,0.0,0.0,0.0,1.0
1529453242203711564,0,1529453242203625457,,0,0,0,0,0,0,0.0,1.12329602846,-2.7817631158,0.0,0.0,0.0,1.0,0.0,-0.314165666393,-2.98350463952,0.0,0.0,0.0,1.0
1529453242204733190,0,1529453242204624915,,0,0,0,0,0,0,0.0,1.12329602846,-2.7817631158,0.0,0.0,0.0,1.0,0.0,-0.314165666393,-2.98350463952,0.0,0.0,0.0,1.0
1529453242205750403,0,1529453242205624296,,0,0,0,0,0,0,0.0,1.12329602846,-2.7817631158,0.0,0.0,0.0,1.0,0.0,-0.314165666393,-2.98350463952,0.0,0.0,0.0,1.0
1529453242206702728,0,1529453242206624586,,0,0,0,0,0,0,0.0,1.12329602846,-2.7817631158,0.0,0.0,0.0,1.0,0.0,-0.314165666393,-2.98350463952,0.0,0.0,0.0,1.0
1529453242207678839,0,1529453242207627009,,0,0,0,0,0,0,0.0,1.12329602846,-2.7817631158,0.0,0.0,0.0,1.0,0.0,-0.314165666393,-2.98350463952,0.0,0.0,0.0,1.0
1529453242208725126,0,1529453242208625117,,0,0,0,0,0,0,0.0,1.12329602846,-2.7817631158,0.0,0.0,0.0,1.0,0.0,-0.314165666393,-2.98350463952,0.0,0.0,0.0,1.0
1529453242209689344,0,1529453242209625315,,0,0,0,0,0,0,0.0,1.12329602846,-2.7817631158,0.0,0.0,0.0,1.0,0.0,-0.314165666393,-2.98350463952,0.0,0.0,0.0,1.0
1529453242210698141,0,1529453242210625259,,0,0,0,0,0,0,0.0,1.12329602846,-2.7817631158,0.0,0.0,0.0,1.0,0.0,-0.314165666393,-2.98350463952,0.0,0.0,0.0,1.0
1529453242211741440,0,1529453242211624995,,0,0,0,0,0,0,0.0,1.12329602846,-2.7817631158,0.0,0.0,0.0,1.0,0.0,-0.314165666393,-2.98350463952,0.0,0.0,0.0,1.0
1529453242212742966,0,1529453242212625292,,0,0,0,0,0,0,0.0,1.12329602846,-2.7817631158,0.0,0.0,0.0,1.0,0.0,-0.314165666393,-2.98350463952,0.0,0.0,0.0,1.0
1529453242213720667,0,1529453242213625146,,0,0,0,0,0,0,0.0,1.12329602846,-2.7817631158,0.0,0.0,0.0,1.0,0.0,-0.314165666393,-2.98350463952,0.0,0.0,0.0,1.0
1529453242214702995,0,1529453242214624709,,0,0,0,0,0,0,0.0,1.17062143493,-2.76218128588,0.0,0.0,0.0,1.0,0.0,-0.273418302224,-2.98751442373,0.0,0.0,0.0,1.0
1529453242215718783,0,1529453242215625001,,0,0,0,0,0,0,0.0,1.17247031179,-2.76139699572,0.0,0.0,0.0,1.0,0.0,-0.271505039158,-2.98768890846,0.0,0.0,0.0,1.0
1529453242216696578,0,1529453242216625447,,0,0,0,0,0,0,0.0,1.17247031179,-2.76139699572,0.0,0.0,0.0,1.0,0.0,-0.271505039158,-2.98768890846,0.0,0.0,0.0,1.0
1529453242217735528,0,1529453242217625343,,0,0,0,0,0,0,0.0,1.17247031179,-2.76139699572,0.0,0.0,0.0,1.0,0.0,-0.271505039158,-2.98768890846,0.0,0.0,0.0,1.0
1529453242218720049,0,1529453242218625259,,0,0,0,0,0,0,0.0,1.17247031179,-2.76139699572,0.0,0.0,0.0,1.0,0.0,-0.271505039158,-2.98768890846,0.0,0.0,0.0,1.0
1529453242219719419,0,1529453242219625463,,0,0,0,0,0,0,0.0,1.17247031179,-2.76139699572,0.0,0.0,0.0,1.0,0.0,-0.271505039158,-2.98768890846,0.0,0.0,0.0,1.0
1529453242220699828,0,1529453242220625369,,0,0,0,0,0,0,0.0,1.17247031179,-2.76139699572,0.0,0.0,0.0,1.0,0.0,-0.271505039158,-2.98768890846,0.0,0.0,0.0,1.0
1529453242221698170,0,1529453242221625402,,0,0,0,0,0,0,0.0,1.17247031179,-2.76139699572,0.0,0.0,0.0,1.0,0.0,-0.271505039158,-2.98768890846,0.0,0.0,0.0,1.0
1529453242222720055,0,1529453242222625239,,0,0,0,0,0,0,0.0,1.17247031179,-2.76139699572,0.0,0.0,0.0,1.0,0.0,-0.271505039158,-2.98768890846,0.0,0.0,0.0,1.0
1529453242223719914,0,1529453242223625398,,0,0,0,0,0,0,0.0,1.17247031179,-2.76139699572,0.0,0.0,0.0,1.0,0.0,-0.271505039158,-2.98768890846,0.0,0.0,0.0,1.0
1529453242224699813,0,1529453242224625463,,0,0,0,0,0,0,0.0,1.17247031179,-2.76139699572,0.0,0.0,0.0,1.0,0.0,-0.271505039158,-2.98768890846,0.0,0.0,0.0,1.0
1529453242225698807,0,1529453242225625523,,0,0,0,0,0,0,0.0,1.17247031179,-2.76139699572,0.0,0.0,0.0,1.0,0.0,-0.271505039158,-2.98768890846,0.0,0.0,0.0,1.0
1529453242226718218,0,1529453242226625213,,0,0,0,0,0,0,0.0,1.17247031179,-2.76139699572,0.0,0.0,0.0,1.0,0.0,-0.271505039158,-2.98768890846,0.0,0.0,0.0,1.0
1529453242227719140,0,1529453242227625287,,0,0,0,0,0,0,0.0,1.17247031179,-2.76139699572,0.0,0.0,0.0,1.0,0.0,-0.271505039158,-2.98768890846,0.0,0.0,0.0,1.0
1529453242228700077,0,1529453242228625296,,0,0,0,0,0,0,0.0,1.17247031179,-2.76139699572,0.0,0.0,0.0,1.0,0.0,-0.271505039158,-2.98768890846,0.0,0.0,0.0,1.0
1529453242229735394,0,1529453242229625246,,0,0,0,0,0,0,0.0,1.17247031179,-2.76139699572,0.0,0.0,0.0,1.0,0.0,-0.271505039158,-2.98768890846,0.0,0.0,0.0,1.0
1529453242230746480,0,1529453242230625576,,0,0,0,0,0,0,0.0,1.17247031179,-2.76139699572,0.0,0.0,0.0,1.0,0.0,-0.271505039158,-2.98768890846,0.0,0.0,0.0,1.0
1529453242231742393,0,1529453242231625157,,0,0,0,0,0,0,0.0,1.17247031179,-2.76139699572,0.0,0.0,0.0,1.0,0.0,-0.271505039158,-2.98768890846,0.0,0.0,0.0,1.0
1529453242232728529,0,1529453242232625545,,0,0,0,0,0,0,0.0,1.17247031179,-2.76139699572,0.0,0.0,0.0,1.0,0.0,-0.271505039158,-2.98768890846,0.0,0.0,0.0,1.0
1529453242233747576,0,1529453242233625640,,0,0,0,0,0,0,0.0,1.17247031179,-2.76139699572,0.0,0.0,0.0,1.0,0.0,-0.271505039158,-2.98768890846,0.0,0.0,0.0,1.0
1529453242234751088,0,1529453242234625291,,0,0,0,0,0,0,0.0,1.17247031179,-2.76139699572,0.0,0.0,0.0,1.0,0.0,-0.271505039158,-2.98768890846,0.0,0.0,0.0,1.0
1529453242235751505,0,1529453242235625476,,0,0,0,0,0,0,0.0,1.17247031179,-2.76139699572,0.0,0.0,0.0,1.0,0.0,-0.271505039158,-2.98768890846,0.0,0.0,0.0,1.0
1529453242236724549,0,1529453242236625483,,0,0,0,0,0,0,0.0,1.21231960152,-2.74413578086,0.0,0.0,0.0,1.0,0.0,-0.23777891798,-2.99056201844,0.0,0.0,0.0,1.0
1529453242237707228,0,1529453242237625177,,0,0,0,0,0,0,0.0,1.21413822972,-2.74333161669,0.0,0.0,0.0,1.0,0.0,-0.235853575237,-2.99071447836,0.0,0.0,0.0,1.0
1529453242238700820,0,1529453242238625188,,0,0,0,0,0,0,0.0,1.21413822972,-2.74333161669,0.0,0.0,0.0,1.0,0.0,-0.235853575237,-2.99071447836,0.0,0.0,0.0,1.0
1529453242239721737,0,1529453242239625526,,0,0,0,0,0,0,0.0,1.21413822972,-2.74333161669,0.0,0.0,0.0,1.0,0.0,-0.235853575237,-2.99071447836,0.0,0.0,0.0,1.0
1529453242240700546,0,1529453242240625366,,0,0,0,0,0,0,0.0,1.21413822972,-2.74333161669,0.0,0.0,0.0,1.0,0.0,-0.235853575237,-2.99071447836,0.0,0.0,0.0,1.0
1529453242241748882,0,1529453242241625359,,0,0,0,0,0,0,0.0,1.21413822972,-2.74333161669,0.0,0.0,0.0,1.0,0.0,-0.235853575237,-2.99071447836,0.0,0.0,0.0,1.0
1529453242242720356,0,1529453242242625196,,0,0,0,0,0,0,0.0,1.21413822972,-2.74333161669,0.0,0.0,0.0,1.0,0.0,-0.235853575237,-2.99071447836,0.0,0.0,0.0,1.0
1529453242243733384,0,1529453242243625420,,0,0,0,0,0,0,0.0,1.21413822972,-2.74333161669,0.0,0.0,0.0,1.0,0.0,-0.235853575237,-2.99071447836,0.0,0.0,0.0,1.0
1529453242244701848,0,1529453242244625270,,0,0,0,0,0,0,0.0,1.21413822972,-2.74333161669,0.0,0.0,0.0,1.0,0.0,-0.235853575237,-2.99071447836,0.0,0.0,0.0,1.0
1529453242245735761,0,1529453242245625376,,0,0,0,0,0,0,0.0,1.21413822972,-2.74333161669,0.0,0.0,0.0,1.0,0.0,-0.235853575237,-2.99071447836,0.0,0.0,0.0,1.0
1529453242246721450,0,1529453242246625118,,0,0,0,0,0,0,0.0,1.21413822972,-2.74333161669,0.0,0.0,0.0,1.0,0.0,-0.235853575237,-2.99071447836,0.0,0.0,0.0,1.0
1529453242247737091,0,1529453242247625627,,0,0,0,0,0,0,0.0,1.21413822972,-2.74333161669,0.0,0.0,0.0,1.0,0.0,-0.235853575237,-2.99071447836,0.0,0.0,0.0,1.0
1529453242248745870,0,1529453242248625271,,0,0,0,0,0,0,0.0,1.21413822972,-2.74333161669,0.0,0.0,0.0,1.0,0.0,-0.235853575237,-2.99071447836,0.0,0.0,0.0,1.0
1529453242249738366,0,1529453242249625508,,0,0,0,0,0,0,0.0,1.21413822972,-2.74333161669,0.0,0.0,0.0,1.0,0.0,-0.235853575237,-2.99071447836,0.0,0.0,0.0,1.0
1529453242250722270,0,1529453242250625040,,0,0,0,0,0,0,0.0,1.21413822972,-2.74333161669,0.0,0.0,0.0,1.0,0.0,-0.235853575237,-2.99071447836,0.0,0.0,0.0,1.0
1529453242251720739,0,1529453242251625408,,0,0,0,0,0,0,0.0,1.21413822972,-2.74333161669,0.0,0.0,0.0,1.0,0.0,-0.235853575237,-2.99071447836,0.0,0.0,0.0,1.0
1529453242252700451,0,1529453242252625333,,0,0,0,0,0,0,0.0,1.21413822972,-2.74333161669,0.0,0.0,0.0,1.0,0.0,-0.235853575237,-2.99071447836,0.0,0.0,0.0,1.0
1529453242253699664,0,1529453242253625650,,0,0,0,0,0,0,0.0,1.21413822972,-2.74333161669,0.0,0.0,0.0,1.0,0.0,-0.235853575237,-2.99071447836,0.0,0.0,0.0,1.0
1529453242254718394,0,1529453242254624808,,0,0,0,0,0,0,0.0,1.21413822972,-2.74333161669,0.0,0.0,0.0,1.0,0.0,-0.235853575237,-2.99071447836,0.0,0.0,0.0,1.0
1529453242255714160,0,1529453242255624996,,0,0,0,0,0,0,0.0,1.21413822972,-2.74333161669,0.0,0.0,0.0,1.0,0.0,-0.235853575237,-2.99071447836,0.0,0.0,0.0,1.0
1529453242256745330,0,1529453242256624710,,0,0,0,0,0,0,0.0,1.21413822972,-2.74333161669,0.0,0.0,0.0,1.0,0.0,-0.235853575237,-2.99071447836,0.0,0.0,0.0,1.0
1529453242257700287,0,1529453242257625229,,0,0,0,0,0,0,0.0,1.21413822972,-2.74333161669,0.0,0.0,0.0,1.0,0.0,-0.235853575237,-2.99071447836,0.0,0.0,0.0,1.0
1529453242258718442,0,1529453242258624972,,0,0,0,0,0,0,0.0,1.24767023199,-2.72824467235,0.0,0.0,0.0,1.0,0.0,-0.202443292997,-2.99316165837,0.0,0.0,0.0,1.0
1529453242259694413,0,1529453242259625495,,0,0,0,0,0,0,0.0,1.24946242389,-2.72742436216,0.0,0.0,0.0,1.0,0.0,-0.200640374063,-2.99328305382,0.0,0.0,0.0,1.0
1529453242260734722,0,1529453242260625576,,0,0,0,0,0,0,0.0,1.24946242389,-2.72742436216,0.0,0.0,0.0,1.0,0.0,-0.200640374063,-2.99328305382,0.0,0.0,0.0,1.0
1529453242261735795,0,1529453242261625664,,0,0,0,0,0,0,0.0,1.24946242389,-2.72742436216,0.0,0.0,0.0,1.0,0.0,-0.200640374063,-2.99328305382,0.0,0.0,0.0,1.0
1529453242262720325,0,1529453242262625246,,0,0,0,0,0,0,0.0,1.24946242389,-2.72742436216,0.0,0.0,0.0,1.0,0.0,-0.200640374063,-2.99328305382,0.0,0.0,0.0,1.0
1529453242263705662,0,1529453242263625447,,0,0,0,0,0,0,0.0,1.24946242389,-2.72742436216,0.0,0.0,0.0,1.0,0.0,-0.200640374063,-2.99328305382,0.0,0.0,0.0,1.0
1529453242264726942,0,1529453242264625402,,0,0,0,0,0,0,0.0,1.24946242389,-2.72742436216,0.0,0.0,0.0,1.0,0.0,-0.200640374063,-2.99328305382,0.0,0.0,0.0,1.0
1529453242265753032,0,1529453242265625302,,0,0,0,0,0,0,0.0,1.24946242389,-2.72742436216,0.0,0.0,0.0,1.0,0.0,-0.200640374063,-2.99328305382,0.0,0.0,0.0,1.0
1529453242266722216,0,1529453242266625151,,0,0,0,0,0,0,0.0,1.24946242389,-2.72742436216,0.0,0.0,0.0,1.0,0.0,-0.200640374063,-2.99328305382,0.0,0.0,0.0,1.0
1529453242267721705,0,1529453242267625421,,0,0,0,0,0,0,0.0,1.24946242389,-2.72742436216,0.0,0.0,0.0,1.0,0.0,-0.200640374063,-2.99328305382,0.0,0.0,0.0,1.0
1529453242268702742,0,1529453242268625624,,0,0,0,0,0,0,0.0,1.24946242389,-2.72742436216,0.0,0.0,0.0,1.0,0.0,-0.200640374063,-2.99328305382,0.0,0.0,0.0,1.0
1529453242269736081,0,1529453242269625629,,0,0,0,0,0,0,0.0,1.24946242389,-2.72742436216,0.0,0.0,0.0,1.0,0.0,-0.200640374063,-2.99328305382,0.0,0.0,0.0,1.0
1529453242270703875,0,1529453242270625515,,0,0,0,0,0,0,0.0,1.24946242389,-2.72742436216,0.0,0.0,0.0,1.0,0.0,-0.200640374063,-2.99328305382,0.0,0.0,0.0,1.0
1529453242271724449,0,1529453242271625440,,0,0,0,0,0,0,0.0,1.24946242389,-2.72742436216,0.0,0.0,0.0,1.0,0.0,-0.200640374063,-2.99328305382,0.0,0.0,0.0,1.0
1529453242272703223,0,1529453242272625499,,0,0,0,0,0,0,0.0,1.24946242389,-2.72742436216,0.0,0.0,0.0,1.0,0.0,-0.200640374063,-2.99328305382,0.0,0.0,0.0,1.0
